Lat;Long;Name;Locality;Road;Operator;OpID;Email;Price1;Price2;Price3;Price4
38.54935;21.27241;Σταθμός Διοδίων Αγγελόκαστρου Μετωπικά (Προς Ιωάννινα);Αιτωλοακαρνανίας-Αγγελόκαστρο;Α/Δ Αντιρρίου-Ιωαννίνων;neaodos;NO;info@neaodos.gr;2.70;3.85;9.60;13.50
38.54947;21.27210;Σταθμός Διοδίων Αγγελόκαστρου Μετωπικά (Προς Ρίο);Αιτωλοακαρνανίας-Αγγελόκαστρο;Α/Δ Αντιρρίου-Ιωαννίνων;neaodos;NO;info@neaodos.gr;2.70;3.85;9.60;13.50
38.94008;20.76598;Σταθμός Διοδίων Σήραγγας Ακτίου Μετωπικά (Προς Αγρίνιο);Αιτωλοακαρνανίας-Άκτιο;Ακτίου-Πρέβεζας;egnatia;EG;eoae@egnatia.gr;0.70;3.00;7.50;10.50
38.94000;20.76634;Σταθμός Διοδίων Σήραγγας Ακτίου Μετωπικά (Προς Πρέβεζα);Αιτωλοακαρνανίας-Άκτιο;Ακτίου-Πρέβεζας;egnatia;EG;eoae@egnatia.gr;0.70;3.00;7.50;10.50
38.33383;21.76604;Σταθμός Διοδίων Γέφυρας Ρίου Αντιρρίου Μετωπικά (Προς Αντίρριο);Αιτωλοακαρνανίας-Αντίρριο;Α/Δ Αντιρρίου-Ιωαννίνων;gefyra;GE;info@gefyra.gr;14.70;14.70;;
38.33381;21.76581;Σταθμός Διοδίων Γέφυρας Ρίου Αντιρρίου Μετωπικά (Προς Ρίο);Αιτωλοακαρνανίας-Αντίρριο;Α/Δ Αντιρρίου-Ιωαννίνων;gefyra;GE;info@gefyra.gr;14.70;14.70;;
38.37341;21.62484;Σταθμός Διοδίων Γαβρολίμνης Πλευρικά (Από Ιωάννινα);Αιτωλοακαρνανίας-Γαβρολίμνη;Α/Δ Αντιρρίου-Ιωαννίνων;neaodos;NO;info@neaodos.gr;1.60;2.30;5.80;8.10
38.37419;21.62510;Σταθμός Διοδίων Γαβρολίμνης Πλευρικά (Προς Ιωάννινα);Αιτωλοακαρνανίας-Γαβρολίμνη;Α/Δ Αντιρρίου-Ιωαννίνων;neaodos;NO;info@neaodos.gr;1.60;2.30;5.80;8.10
38.35929;21.65685;Σταθμός Διοδίων Κλόκοβας Μετωπικά (Προς Ιωάννινα);Αιτωλοακαρνανίας-Γαβρολίμνη;Α/Δ Αντιρρίου-Ιωαννίνων;neaodos;NO;info@neaodos.gr;2.25;3.25;8.20;11.45
38.35921;21.65640;Σταθμός Διοδίων Κλόκοβας Μετωπικά (Προς Ρίο);Αιτωλοακαρνανίας-Γαβρολίμνη;Α/Δ Αντιρρίου-Ιωαννίνων;neaodos;NO;info@neaodos.gr;2.25;3.25;8.20;11.45
38.37953;21.49530;Σταθμός Διοδίων Μεσολογγίου Πλευρικά (Από Ιωάννινα);Αιτωλοακαρνανίας-Ζέστη;Α/Δ Αντιρρίου-Ιωαννίνων;neaodos;NO;info@neaodos.gr;0.95;1.35;3.45;4.80
38.37935;21.49496;Σταθμός Διοδίων Μεσολογγίου Πλευρικά (Προς Ιωάννινα);Αιτωλοακαρνανίας-Ζέστη;Α/Δ Αντιρρίου-Ιωαννίνων;neaodos;NO;info@neaodos.gr;0.95;1.35;3.45;4.80
38.98982;21.17102;Σταθμός Διοδίων Μενιδίου Μετωπικά (Προς Ιωάννινα);Αιτωλοακαρνανίας-Μενίδι;Α/Δ Αντιρρίου-Ιωαννίνων;neaodos;NO;info@neaodos.gr;2.30;3.25;8.20;11.50
38.98999;21.17073;Σταθμός Διοδίων Μενιδίου Μετωπικά (Προς Ρίο);Αιτωλοακαρνανίας-Μενίδι;Α/Δ Αντιρρίου-Ιωαννίνων;neaodos;NO;info@neaodos.gr;2.30;3.25;8.20;11.50
38.69941;21.21408;Σταθμός Διοδίων Κουβαρά Πλευρικά (Από Ιωάννινα);Αιτωλοακαρνανίας-Φυτείες;Α/Δ Αντιρρίου-Ιωαννίνων;neaodos;NO;info@neaodos.gr;1.25;1.75;4.45;6.25
38.70032;21.21573;Σταθμός Διοδίων Κουβαρά Πλευρικά (Προς Ιωάννινα);Αιτωλοακαρνανίας-Φυτείες;Α/Δ Αντιρρίου-Ιωαννίνων;neaodos;NO;info@neaodos.gr;1.25;1.75;4.45;6.25
37.34516;22.11037;Σταθμός Διοδίων Βελιγοστής Μετωπικά (Προς Καλαμάτα);Αρκαδίας-Βελιγοστή;Α/Δ Μορέας;moreas;MO;info@moreas.com.gr;0.90;1.35;3.40;4.80
37.34483;22.11030;Σταθμός Διοδίων Βελιγοστής Μετωπικά (Προς Κόρινθο);Αρκαδίας-Βελιγοστή;Α/Δ Μορέας;moreas;MO;info@moreas.com.gr;0.90;1.35;3.40;4.80
37.41249;22.30764;Σταθμός Διοδίων Γέφυρας Μάναρη Μετωπικά (Προς Καλαμάτα);Αρκαδίας-Μάναρης;Α/Δ Μορέας;moreas;MO;info@moreas.com.gr;1.40;2.10;5.25;7.40
37.41220;22.30776;Σταθμός Διοδίων Γέφυρας Μάναρη Μετωπικά (Προς Κόρινθο);Αρκαδίας-Μάναρης;Α/Δ Μορέας;moreas;MO;info@moreas.com.gr;1.40;2.10;5.25;7.40
37.60085;22.44646;Σταθμός Διοδίων Νεστάνης Μετωπικά (Προς Καλαμάτα);Αρκαδίας-Νεστάνη;Α/Δ Μορέας;moreas;MO;info@moreas.com.gr;1.80;2.60;6.50;9.10
37.60057;22.44655;Σταθμός Διοδίων Νεστάνης Μετωπικά (Προς Κόρινθο);Αρκαδίας-Νεστάνη;Α/Δ Μορέας;moreas;MO;info@moreas.com.gr;1.80;2.60;6.50;9.10
37.29864;22.21032;Σταθμός Διοδίων Πετρίνας Μετωπικά (Προς Κόρινθο-Καλαμάτα);Αρκαδίας-Πετρίνα;Α/Δ Μορέας;moreas;MO;info@moreas.com.gr;2.20;3.15;7.90;11.10
37.29884;22.21009;Σταθμός Διοδίων Πετρίνας Μετωπικά (Προς Σπάρτη);Αρκαδίας-Πετρίνα;Α/Δ Μορέας;moreas;MO;info@moreas.com.gr;2.20;3.15;7.90;11.10
39.16037;21.01087;Σταθμός Διοδίων Άρτας Πλευρικά (Από Ιωάννινα);Άρτας-Άγιος Δημήτριος;Α/Δ Αντιρρίου-Ιωαννίνων;neaodos;NO;info@neaodos.gr;0.55;0.80;2.10;2.90
39.16064;21.01217;Σταθμός Διοδίων Άρτας Πλευρικά (Προς Ιωάννινα);Άρτας-Άγιος Δημήτριος;Α/Δ Αντιρρίου-Ιωαννίνων;neaodos;NO;info@neaodos.gr;0.55;0.80;2.10;2.90
38.00812;23.83668;Σταθμός Διοδίων Αγίας Παρασκευής Πλευρικά (Προς Καρέα);Αττικής-Αγία Παρασκευή;Περιφ. Υμηττού;naodos;NAO;customercare@attikesdiadromes.gr;1.25;2.50;6.25;10.00
38.00910;23.84211;Σταθμός Διοδίων Αγίας Παρασκευής Πλευρικά (Προς Παλλήνη);Αττικής-Αγία Παρασκευή;Περιφ. Υμηττού;naodos;NAO;customercare@attikesdiadromes.gr;1.25;2.50;6.25;10.00
37.99958;23.82120;Σταθμός Διοδίων Δημόκριτου Πλευρικά (Προς Παλλήνη);Αττικής-Αγία Παρασκευή;Περιφ. Υμηττού;naodos;NAO;customercare@attikesdiadromes.gr;1.25;2.50;6.25;10.00
38.01688;23.86606;Σταθμός Διοδίων Ανθούσας Πλευρικά (Προς Ελευσίνα);Αττικής-Ανθούσα;Αττική Οδός;naodos;NAO;customercare@attikesdiadromes.gr;1.25;2.50;6.25;10.00
38.07565;23.67635;Σταθμός Διοδίων Περιφεριακής Αιγάλεω Πλευρικά (Προς Αεροδρόμιο);Αττικής-Άνω Λιόσια;Αττική Οδός;naodos;NAO;customercare@attikesdiadromes.gr;1.25;2.50;6.25;10.00
38.08009;23.67856;Σταθμός Διοδίων Περιφεριακής Αιγάλεω Πλευρικά (Προς Ελευσίνα);Αττικής-Άνω Λιόσια;Αττική Οδός;naodos;NAO;customercare@attikesdiadromes.gr;1.25;2.50;6.25;10.00
38.08919;23.62220;Σταθμός Διοδίων Ασπροπύργου Πλευρικά (Προς Αεροδρόμιο);Αττικής-Ασπρόπυργος;Αττική Οδός;naodos;NAO;customercare@attikesdiadromes.gr;1.25;2.50;6.25;10.00
38.09040;23.61994;Σταθμός Διοδίων Ασπροπύργου Πλευρικά (Προς Ελευσίνα);Αττικής-Ασπρόπυργος;Αττική Οδός;naodos;NAO;customercare@attikesdiadromes.gr;1.25;2.50;6.25;10.00
38.17650;23.85388;Σταθμός Διοδίων Αφιδνών Μετωπικά (Προς Αθήνα);Αττικής-Αφίδνες;Α/Δ Αθηνών-Θεσσαλονίκης;neaodos;NO;info@neaodos.gr;2.50;3.55;8.95;12.55
38.17634;23.85444;Σταθμός Διοδίων Αφιδνών Μετωπικά (Προς Θεσσαλονίκη);Αττικής-Αφίδνες;Α/Δ Αθηνών-Θεσσαλονίκης;neaodos;NO;info@neaodos.gr;2.50;3.55;8.95;12.55
38.02401;23.83473;Σταθμός Διοδίων Λεωφ. Δουκίσσης Πλακεντίας Πλευρικά (Προς Αεροδρόμιο);Αττικής-Βριλήσσια;Αττική Οδός;naodos;NAO;customercare@attikesdiadromes.gr;1.25;2.50;6.25;10.00
38.02517;23.83393;Σταθμός Διοδίων Λεωφ. Δουκίσσης Πλακεντίας Πλευρικά (Προς Ελευσίνα);Αττικής-Βριλήσσια;Αττική Οδός;naodos;NAO;customercare@attikesdiadromes.gr;1.25;2.50;6.25;10.00
38.01935;23.83767;Σταθμός Διοδίων Λεωφ. Δουκίσσης Πλακεντίας Πλευρικά (Προς Καρέα);Αττικής-Βριλήσσια;Περιφ. Υμηττού;naodos;NAO;customercare@attikesdiadromes.gr;1.25;2.50;6.25;10.00
38.02703;23.82915;Σταθμός Διοδίων Λεωφ. Πεντέλης Πλευρικά (Προς Αεροδρόμιο);Αττικής-Βριλήσσια;Αττική Οδός;naodos;NAO;customercare@attikesdiadromes.gr;1.25;2.50;6.25;10.00
38.03427;23.82164;Σταθμός Διοδίων Λεωφ. Πεντέλης Πλευρικά (Προς Ελευσίνα);Αττικής-Βριλήσσια;Αττική Οδός;naodos;NAO;customercare@attikesdiadromes.gr;1.25;2.50;6.25;10.00
37.99753;23.84944;Σταθμός Διοδίων Γλυκών Νερών Πλευρικά (Προς Καρέα);Αττικής-Γλυκά Νερά;Περιφ. Υμηττού;naodos;NAO;customercare@attikesdiadromes.gr;1.25;2.50;6.25;10.00
37.99710;23.85116;Σταθμός Διοδίων Γλυκών Νερών Πλευρικά (Προς Παλλήνη);Αττικής-Γλυκά Νερά;Περιφ. Υμηττού;naodos;NAO;customercare@attikesdiadromes.gr;1.25;2.50;6.25;10.00
38.04199;23.49613;Σταθμός Διοδίων Ελευσίνας Μετωπικά (Προς Αθήνα);Αττικής-Ελευσίνα;Α/Δ Αθηνών-Κορίνθου;olympiaodos;OO;customercare@olympiaoperation.gr;1.60;2.30;5.80;8.10
38.04250;23.49545;Σταθμός Διοδίων Ελευσίνας Μετωπικά (Προς Πάτρα);Αττικής-Ελευσίνα;Α/Δ Αθηνών-Κορίνθου;olympiaodos;OO;customercare@olympiaoperation.gr;1.60;2.30;5.80;8.10
38.06607;23.73427;Σταθμός Διοδίων Λεωφ. Δημοκρατίας Πλευρικά (Προς Αεροδρόμιο);Αττικής-Ζεφύρι;Αττική Οδός;naodos;NAO;customercare@attikesdiadromes.gr;1.25;2.50;6.25;10.00
38.06741;23.73161;Σταθμός Διοδίων Λεωφ. Δημοκρατίας Πλευρικά (Προς Ελευσίνα);Αττικής-Ζεφύρι;Αττική Οδός;naodos;NAO;customercare@attikesdiadromes.gr;1.25;2.50;6.25;10.00
38.05641;23.77234;Σταθμός Διοδίων Λεωφ. Ηρακλείου Πλευρικά (Προς Αεροδρόμιο);Αττικής-Ηράκλειο;Αττική Οδός;naodos;NAO;customercare@attikesdiadromes.gr;1.25;2.50;6.25;10.00
38.05859;23.76884;Σταθμός Διοδίων Λεωφ. Ηρακλείου Πλευρικά (Προς Ελευσίνα);Αττικής-Ηράκλειο;Αττική Οδός;naodos;NAO;customercare@attikesdiadromes.gr;1.25;2.50;6.25;10.00
38.04838;23.78561;Σταθμός Διοδίων Λεωφ. Κύμης Πλευρικά (Προς Αεροδρόμιο);Αττικής-Ηράκλειο;Αττική Οδός;naodos;NAO;customercare@attikesdiadromes.gr;1.25;2.50;6.25;10.00
38.05237;23.78147;Σταθμός Διοδίων Λεωφ. Κύμης Πλευρικά (Προς Ελευσίνα);Αττικής-Ηράκλειο;Αττική Οδός;naodos;NAO;customercare@attikesdiadromes.gr;1.25;2.50;6.25;10.00
38.07018;23.71147;Σταθμός Διοδίων Λεωφ. Φυλής Πλευρικά (Προς Αεροδρόμιο);Αττικής-Καματερό;Αττική Οδός;naodos;NAO;customercare@attikesdiadromes.gr;1.25;2.50;6.25;10.00
38.07138;23.70832;Σταθμός Διοδίων Λεωφ. Φυλής Πλευρικά (Προς Ελευσίνα);Αττικής-Καματερό;Αττική Οδός;naodos;NAO;customercare@attikesdiadromes.gr;1.25;2.50;6.25;10.00
38.20262;23.85396;Σταθμός Διοδίων Καπανδριτίου Πλευρικά (Από Θεσσαλονίκη);Αττικής-Καπανδρίτι;Α/Δ Αθηνών-Θεσσαλονίκης;neaodos;NO;info@neaodos.gr;1.50;2.15;5.40;7.60
38.20275;23.85477;Σταθμός Διοδίων Καπανδριτίου Πλευρικά (Προς Θεσσαλονίκη);Αττικής-Καπανδρίτι;Α/Δ Αθηνών-Θεσσαλονίκης;neaodos;NO;info@neaodos.gr;1.50;2.15;5.40;7.60
37.93851;23.88683;Σταθμός Διοδίων Κορωπίου Μετωπικά (Προς Ελευσίνα);Αττικής-Κορωπί;Αττική Οδός;naodos;NAO;customercare@attikesdiadromes.gr;1.25;2.50;6.25;10.00
38.23753;23.78053;Σταθμός Διοδίων Μαλακάσας Πλευρικά (Από Θεσσαλονίκη);Αττικής-Μαλακάσα;Α/Δ Αθηνών-Θεσσαλονίκης;neaodos;NO;info@neaodos.gr;1.05;1.55;3.85;5.40
38.23633;23.78600;Σταθμός Διοδίων Μαλακάσας Πλευρικά (Προς Θεσσαλονίκη);Αττικής-Μαλακάσα;Α/Δ Αθηνών-Θεσσαλονίκης;neaodos;NO;info@neaodos.gr;1.05;1.55;3.85;5.40
38.04123;23.80530;Σταθμός Διοδίων Λεωφ. Κηφισίας Πλευρικά (Προς Αεροδρόμιο);Αττικής-Μαρούσι;Αττική Οδός;naodos;NAO;customercare@attikesdiadromes.gr;1.25;2.50;6.25;10.00
38.04366;23.79931;Σταθμός Διοδίων Λεωφ. Κηφισίας Πλευρικά (Προς Ελευσίνα);Αττικής-Μαρούσι;Αττική Οδός;naodos;NAO;customercare@attikesdiadromes.gr;1.25;2.50;6.25;10.00
38.06086;23.75050;Σταθμός Διοδίων Αθηνών-Λαμίας Πλευρικά (Από Αθήνα Προς Αεροδρόμιο);Αττικής-Μεταμόρφωση;Αττική Οδός;naodos;NAO;customercare@attikesdiadromes.gr;1.25;2.50;6.25;10.00
38.06285;23.74866;Σταθμός Διοδίων Αθηνών-Λαμίας Πλευρικά (Από Αθήνα Προς Ελευσίνα);Αττικής-Μεταμόρφωση;Αττική Οδός;naodos;NAO;customercare@attikesdiadromes.gr;1.25;2.50;6.25;10.00
38.06120;23.75044;Σταθμός Διοδίων Αθηνών-Λαμίας Πλευρικά (Από Λαμία Προς Αεροδρόμιο);Αττικής-Μεταμόρφωση;Αττική Οδός;naodos;NAO;customercare@attikesdiadromes.gr;1.25;2.50;6.25;10.00
38.06315;23.74873;Σταθμός Διοδίων Αθηνών-Λαμίας Πλευρικά (Από Λαμία Προς Ελευσίνα);Αττικής-Μεταμόρφωση;Αττική Οδός;naodos;NAO;customercare@attikesdiadromes.gr;1.25;2.50;6.25;10.00
38.01988;23.42843;Σταθμός Διοδίων Νέας Περάμου Πλευρικά (Από Πάτρα);Αττικής-Νέα Πέραμος;Α/Δ Αθηνών-Κορίνθου;olympiaodos;OO;customercare@olympiaoperation.gr;1.10;1.50;3.90;5.50
38.01970;23.42683;Σταθμός Διοδίων Νέας Περάμου Πλευρικά (Προς Πάτρα);Αττικής-Νέα Πέραμος;Α/Δ Αθηνών-Κορίνθου;olympiaodos;OO;customercare@olympiaoperation.gr;1.10;1.50;3.90;5.50
37.95341;23.88573;Σταθμός Διοδίων Παιανίας Πλευρικά (Προς Αεροδρόμιο);Αττικής-Παιανία;Αττική Οδός;naodos;NAO;customercare@attikesdiadromes.gr;1.25;2.50;6.25;10.00
37.95731;23.88672;Σταθμός Διοδίων Παιανίας Πλευρικά (Προς Ελευσίνα);Αττικής-Παιανία;Αττική Οδός;naodos;NAO;customercare@attikesdiadromes.gr;1.25;2.50;6.25;10.00
38.00431;23.86971;Σταθμός Διοδίων Λεωφ. Μαραθώνος Πλευρικά (Προς Αεροδρόμιο);Αττικής-Παλλήνη;Αττική Οδός;naodos;NAO;customercare@attikesdiadromes.gr;1.25;2.50;6.25;10.00
38.00805;23.86918;Σταθμός Διοδίων Λεωφ. Μαραθώνος Πλευρικά (Προς Ελευσίνα);Αττικής-Παλλήνη;Αττική Οδός;naodos;NAO;customercare@attikesdiadromes.gr;1.25;2.50;6.25;10.00
37.99397;23.88736;Σταθμός Διοδίων Παλλήνης Πλευρικά (Προς Καρέα);Αττικής-Παλλήνη;Περιφ. Υμηττού;naodos;NAO;customercare@attikesdiadromes.gr;1.25;2.50;6.25;10.00
37.97720;23.80010;Σταθμός Διοδίων Κατεχάκη Μετωπικά (Προς Παλλήνη);Αττικής-Παπάγος;Περιφ. Υμηττού;naodos;NAO;customercare@attikesdiadromes.gr;1.25;2.50;6.25;10.00
37.98565;23.80999;Σταθμός Διοδίων Παπάγου Πλευρικά (Προς Καρέα);Αττικής-Παπάγος;Περιφ. Υμηττού;naodos;NAO;customercare@attikesdiadromes.gr;1.25;2.50;6.25;10.00
37.98559;23.81250;Σταθμός Διοδίων Παπάγου Πλευρικά (Προς Παλλήνη);Αττικής-Παπάγος;Περιφ. Υμηττού;naodos;NAO;customercare@attikesdiadromes.gr;1.25;2.50;6.25;10.00
37.98501;23.34987;Σταθμός Διοδίων Πάχης Πλευρικά (Από Πάτρα);Αττικής-Πάχη;Α/Δ Αθηνών-Κορίνθου;olympiaodos;OO;customercare@olympiaoperation.gr;0.70;1.00;2.50;3.50
37.98590;23.34910;Σταθμός Διοδίων Πάχης Πλευρικά (Προς Πάτρα);Αττικής-Πάχη;Α/Δ Αθηνών-Κορίνθου;olympiaodos;OO;customercare@olympiaoperation.gr;0.70;1.00;2.50;3.50
38.09389;23.59099;Σταθμός Διοδίων Ρουπακίου Μετωπικά (Προς Αεροδρόμιο);Αττικής-Ρουπάκι;Αττική Οδός;naodos;NAO;customercare@attikesdiadromes.gr;1.25;2.50;6.25;10.00
37.98003;23.86990;Σταθμός Διοδίων Κάντζας Πλευρικά (Προς Αεροδρόμιο);Αττικής-Σπάτα-Κάντζα;Αττική Οδός;naodos;NAO;customercare@attikesdiadromes.gr;1.25;2.50;6.25;10.00
37.98229;23.87047;Σταθμός Διοδίων Κάντζας Πλευρικά (Προς Ελευσίνα);Αττικής-Σπάτα-Κάντζα;Αττική Οδός;naodos;NAO;customercare@attikesdiadromes.gr;1.25;2.50;6.25;10.00
38.31624;21.83038;Σταθμός Διοδίων Ρίου Μετωπικά (Προς Αθήνα);Αχαΐας-Άγιος Βασίλειος;Α/Δ Κορίνθου-Πατρών;olympiaodos;OO;customercare@olympiaoperation.gr;1.70;2.40;6.20;8.70
38.31663;21.82995;Σταθμός Διοδίων Ρίου Μετωπικά (Προς Πάτρα);Αχαΐας-Άγιος Βασίλειος;Α/Δ Κορίνθου-Πατρών;olympiaodos;OO;customercare@olympiaoperation.gr;1.70;2.40;6.20;8.70
38.32496;21.85800;Σταθμός Διοδίων Δρεπάνου Πλευρικά (Από Αθήνα);Αχαΐας-Δρέπανο;Α/Δ Κορίνθου-Πατρών;olympiaodos;OO;customercare@olympiaoperation.gr;1.30;1.80;4.70;6.60
38.32513;21.85815;Σταθμός Διοδίων Δρεπάνου Πλευρικά (Προς Αθήνα);Αχαΐας-Δρέπανο;Α/Δ Κορίνθου-Πατρών;olympiaodos;OO;customercare@olympiaoperation.gr;1.30;1.80;4.70;6.60
38.19048;22.16526;Σταθμός Διοδίων Ελαιώνα Μετωπικά (Προς Αθήνα);Αχαΐας-Ελαιώνας;Α/Δ Κορίνθου-Πατρών;olympiaodos;OO;customercare@olympiaoperation.gr;2.40;3.50;8.90;12.40
38.19092;22.16560;Σταθμός Διοδίων Ελαιώνα Μετωπικά (Προς Πάτρα);Αχαΐας-Ελαιώνας;Α/Δ Κορίνθου-Πατρών;olympiaodos;OO;customercare@olympiaoperation.gr;2.40;3.50;8.90;12.40
38.15655;22.34285;Σταθμός Διοδίων Ακράτας Πλευρικά (Από Αθήνα);Αχαΐας-Κράθιο;Α/Δ Κορίνθου-Πατρών;olympiaodos;OO;customercare@olympiaoperation.gr;1.30;1.90;4.70;6.70
38.15715;22.34236;Σταθμός Διοδίων Ακράτας Πλευρικά (Προς Αθήνα);Αχαΐας-Κράθιο;Α/Δ Κορίνθου-Πατρών;olympiaodos;OO;customercare@olympiaoperation.gr;1.30;1.90;4.70;6.70
38.17475;22.23938;Σταθμός Διοδίων Καλαβρύτων Πλευρικά (Από Αθήνα);Αχαΐας-Τράπεζα;Α/Δ Κορίνθου-Πατρών;olympiaodos;OO;customercare@olympiaoperation.gr;1.80;2.60;6.50;9.10
38.17461;22.23961;Σταθμός Διοδίων Καλαβρύτων Πλευρικά (Προς Αθήνα);Αχαΐας-Τράπεζα;Α/Δ Κορίνθου-Πατρών;olympiaodos;OO;customercare@olympiaoperation.gr;1.80;2.60;6.50;9.10
38.37082;23.28677;Σταθμός Διοδίων Θήβας Μετωπικά (Προς Αθήνα);Βοιωτίας-Θήβα;Α/Δ Αθηνών-Θεσσαλονίκης;neaodos;NO;info@neaodos.gr;2.90;4.20;10.50;14.70
38.37090;23.28704;Σταθμός Διοδίων Θήβας Μετωπικά (Προς Θεσσαλονίκη);Βοιωτίας-Θήβα;Α/Δ Αθηνών-Θεσσαλονίκης;neaodos;NO;info@neaodos.gr;2.90;4.20;10.50;14.70
38.36621;23.32467;Σταθμός Διοδίων Θήβας Πλευρικά (Από Θεσσαλονίκη);Βοιωτίας-Θήβα;Α/Δ Αθηνών-Θεσσαλονίκης;neaodos;NO;info@neaodos.gr;1.15;1.65;4.15;5.80
38.36403;23.32208;Σταθμός Διοδίων Θήβας Πλευρικά (Προς Θεσσαλονίκη);Βοιωτίας-Θήβα;Α/Δ Αθηνών-Θεσσαλονίκης;neaodos;NO;info@neaodos.gr;1.15;1.65;4.15;5.80
38.28925;23.67591;Σταθμός Διοδίων Οινοφύτων Πλευρικά (Από Θεσσαλονίκη);Βοιωτίας-Οινόφυτα;Α/Δ Αθηνών-Θεσσαλονίκης;neaodos;NO;info@neaodos.gr;0.50;0.70;1.80;2.55
38.29219;23.67477;Σταθμός Διοδίων Οινοφύτων Πλευρικά (Προς Θεσσαλονίκη);Βοιωτίας-Οινόφυτα;Α/Δ Αθηνών-Θεσσαλονίκης;neaodos;NO;info@neaodos.gr;0.50;0.70;1.80;2.55
40.94466;26.20525;Σταθμός Διοδίων Αρδανίου Μετωπικά (Προς Ηγουμενίτσα);Έβρου-Αρδάνι;Εγνατία Οδός;egnatia;EG;eoae@egnatia.gr;0.80;1.20;3.00;4.20
40.94448;26.20509;Σταθμός Διοδίων Αρδανίου Μετωπικά (Προς Κήπους);Έβρου-Αρδάνι;Εγνατία Οδός;egnatia;EG;eoae@egnatia.gr;0.80;1.20;3.00;4.20
41.01349;25.53327;Σταθμός Διοδίων Μεστής Μετωπικά (Προς Αλεξ/πολη);Έβρου-Μεστή;Εγνατία Οδός;egnatia;EG;eoae@egnatia.gr;1.20;1.70;4.30;6.00
41.01347;25.53349;Σταθμός Διοδίων Μεστής Μετωπικά (Προς Ηγουμενίτσα);Έβρου-Μεστή;Εγνατία Οδός;egnatia;EG;eoae@egnatia.gr;1.20;1.70;4.30;6.00
40.96176;25.64339;Σταθμός Διοδίων Μεστής Πλευρικά (Από Αλεξ/πολη);Έβρου-Μεστή;Εγνατία Οδός;egnatia;EG;eoae@egnatia.gr;0.60;0.80;2.00;2.80
40.96122;25.64278;Σταθμός Διοδίων Μεστής Πλευρικά (Προς Αλεξ/πολη);Έβρου-Μεστή;Εγνατία Οδός;egnatia;EG;eoae@egnatia.gr;0.60;0.80;2.00;2.80
40.51974;22.57247;Σταθμός Διοδίων Κλειδίου Μετωπικά (Προς Αθήνα);Ημαθίας-Κλειδί;Α/Δ Αθηνών-Θεσσαλονίκης;aegeanmotorway;AM;customercare@aegeanmotorway.gr;1.40;2.00;5.90;8.30
40.51943;22.57290;Σταθμός Διοδίων Κλειδίου Μετωπικά (Προς Θεσσαλονίκη);Ημαθίας-Κλειδί;Α/Δ Αθηνών-Θεσσαλονίκης;aegeanmotorway;AM;customercare@aegeanmotorway.gr;1.40;2.00;5.90;8.30
40.70685;23.19131;Σταθμός Διοδίων Ανάληψης Μετωπικά (Προς Αλεξ/πολη);Θεσσαλονίκης-Ανάληψη;Εγνατία Οδός;egnatia;EG;eoae@egnatia.gr;1.30;1.80;4.50;6.30
40.70687;23.19166;Σταθμός Διοδίων Ανάληψης Μετωπικά (Προς Ηγουμενίτσα);Θεσσαλονίκης-Ανάληψη;Εγνατία Οδός;egnatia;EG;eoae@egnatia.gr;1.30;1.80;4.50;6.30
40.72626;23.69369;Σταθμός Διοδίων Ασπροβάλτας Μετωπικά (Προς Αλεξανδρούπολη);Θεσσαλονίκης-Ασπροβάλτα;Εγνατία Οδός;egnatia;EG;eoae@egnatia.gr;0.60;0.90;2.30;3.20
40.72651;23.69370;Σταθμός Διοδίων Ασπροβάλτας Μετωπικά (Προς Ηγουμενίτσα);Θεσσαλονίκης-Ασπροβάλτα;Εγνατία Οδός;egnatia;EG;eoae@egnatia.gr;0.60;0.90;2.30;3.20
40.70133;23.37106;Σταθμός Διοδίων Βαϊοχωρίου Πλευρικά (Από Αλεξ/πολη);Θεσσαλονίκης-Βαϊοχώρι;Εγνατία Οδός;egnatia;EG;eoae@egnatia.gr;0.40;0.60;1.50;2.10
40.70003;23.37042;Σταθμός Διοδίων Βαϊοχωρίου Πλευρικά (Προς Αλεξ/πολη);Θεσσαλονίκης-Βαϊοχώρι;Εγνατία Οδός;egnatia;EG;eoae@egnatia.gr;0.40;0.60;1.50;2.10
40.69605;22.89561;Σταθμός Διοδίων Θεσσαλονίκης Μετωπικά (Προς Αλεξανδρούπολη);Θεσσαλονίκης-Θεσσαλονίκη;Εγνατία Οδός;egnatia;EG;eoae@egnatia.gr;0.30;0.50;1.00;1.50
40.69621;22.89602;Σταθμός Διοδίων Θεσσαλονίκης Μετωπικά (Προς Ηγουμενίτσα);Θεσσαλονίκης-Θεσσαλονίκη;Εγνατία Οδός;egnatia;EG;eoae@egnatia.gr;0.30;0.50;1.00;1.50
40.74036;23.01134;Σταθμός Διοδίων Λαγκαδά Πλευρικά (Είσοδος Προς Ηγουμενίτσα);Θεσσαλονίκης-Λαγυνά;Εγνατία Οδός;egnatia;EG;eoae@egnatia.gr;0.20;0.30;0.80;1.10
40.74041;23.00921;Σταθμός Διοδίων Λαγκαδά Πλευρικά (Είσοδος Προς Ηγουμενίτσα);Θεσσαλονίκης-Λαγυνά;Εγνατία Οδός;egnatia;EG;eoae@egnatia.gr;0.20;0.30;0.80;1.10
40.73708;23.00886;Σταθμός Διοδίων Λαγκαδά Πλευρικά (Έξοδος Από Ηγουμενίτσα);Θεσσαλονίκης-Λαγυνά;Εγνατία Οδός;egnatia;EG;eoae@egnatia.gr;0.20;0.30;0.80;1.10
40.60257;22.69825;Σταθμός Διοδίων Μαλγάρων Μετωπικά (Προς Αθήνα);Θεσσαλονίκης-Μάλγαρα;Α/Δ Αθηνών-Θεσσαλονίκης;egnatia;EG;eoae@egnatia.gr;0.80;1.20;3.00;4.20
40.60222;22.69828;Σταθμός Διοδίων Μαλγάρων Μετωπικά (Προς Θεσσαλονίκη);Θεσσαλονίκης-Μάλγαρα;Α/Δ Αθηνών-Θεσσαλονίκης;egnatia;EG;eoae@egnatia.gr;0.80;1.20;3.00;4.20
40.70963;23.68233;Σταθμός Διοδίων Ασπροβάλτας Πλευρικά (Από Ηγουμενίτσα);Θεσσαλονίκης-Νέα Βρασνά;Εγνατία Οδός;egnatia;EG;eoae@egnatia.gr;0.20;0.30;0.80;1.10
40.70969;23.68007;Σταθμός Διοδίων Ασπροβάλτας Πλευρικά (Προς Ηγουμενίτσα);Θεσσαλονίκης-Νέα Βρασνά;Εγνατία Οδός;egnatia;EG;eoae@egnatia.gr;0.20;0.30;0.80;1.10
40.68507;23.25728;Σταθμός Διοδίων Προφήτη Πλευρικά (Από Αλεξ/πολη);Θεσσαλονίκης-Προφήτης;Εγνατία Οδός;egnatia;EG;eoae@egnatia.gr;0.60;0.90;2.30;3.20
40.68298;23.26014;Σταθμός Διοδίων Προφήτη Πλευρικά (Προς Αλεξ/πολη);Θεσσαλονίκης-Προφήτης;Εγνατία Οδός;egnatia;EG;eoae@egnatia.gr;0.60;0.90;2.30;3.20
39.61861;20.94787;Σταθμός Διοδίων Παμβώτιδας Μετωπικά (Προς Αλεξ/πολη);Ιωαννίνων-Ιωάννινα;Εγνατία Οδός;egnatia;EG;eoae@egnatia.gr;0.80;1.20;3.00;4.20
39.61887;20.94798;Σταθμός Διοδίων Παμβώτιδας Μετωπικά (Προς Ηγουμενίτσα);Ιωαννίνων-Ιωάννινα;Εγνατία Οδός;egnatia;EG;eoae@egnatia.gr;0.80;1.20;3.00;4.20
39.42539;20.90533;Σταθμός Διοδίων Τερόβου Μετωπικά (Προς Ιωάννινα);Ιωαννίνων-Τέροβο;Α/Δ Αντιρρίου-Ιωαννίνων;neaodos;NO;info@neaodos.gr;2.35;3.35;8.45;11.85
39.42559;20.90509;Σταθμός Διοδίων Τερόβου Μετωπικά (Προς Ρίο);Ιωαννίνων-Τέροβο;Α/Δ Αντιρρίου-Ιωαννίνων;neaodos;NO;info@neaodos.gr;2.35;3.35;8.45;11.85
39.54018;20.67424;Σταθμός Διοδίων Τύριας Μετωπικά (Προς Αλεξ/πολη);Ιωαννίνων-Τύρια;Εγνατία Οδός;egnatia;EG;eoae@egnatia.gr;1.50;2.10;5.30;7.40
39.54018;20.67446;Σταθμός Διοδίων Τύριας Μετωπικά (Προς Ηγουμενίτσα);Ιωαννίνων-Τύρια;Εγνατία Οδός;egnatia;EG;eoae@egnatia.gr;1.50;2.10;5.30;7.40
40.87301;24.29632;Σταθμός Διοδίων Αγίου Ανδρέα Πλευρικά (Από Αλεξ/πολη);Καβάλας-Άγιος Ανδρέας;Εγνατία Οδός;egnatia;EG;eoae@egnatia.gr;0.30;0.40;1.00;1.40
40.87425;24.29886;Σταθμός Διοδίων Αγίου Ανδρέα Πλευρικά (Προς Αλεξ/πολη);Καβάλας-Άγιος Ανδρέας;Εγνατία Οδός;egnatia;EG;eoae@egnatia.gr;0.30;0.40;1.00;1.40
40.95475;24.46490;Σταθμός Διοδίων Άσπρων Χωμάτων Πλευρικά (Από Ηγουμενίτσα);Καβάλας-Άσπρη Άμμος;Εγνατία Οδός;egnatia;EG;eoae@egnatia.gr;0.20;0.30;0.80;1.10
40.95614;24.46335;Σταθμός Διοδίων Άσπρων Χωμάτων Πλευρικά (Προς Ηγουμενίτσα);Καβάλας-Άσπρη Άμμος;Εγνατία Οδός;egnatia;EG;eoae@egnatia.gr;0.20;0.30;0.80;1.10
40.95970;24.47231;Σταθμός Διοδίων Καβάλας Μετωπικά (Προς Αλεξ/πολη);Καβάλας-Άσπρη Άμμος;Εγνατία Οδός;egnatia;EG;eoae@egnatia.gr;1.00;1.40;3.50;4.90
40.95996;24.47252;Σταθμός Διοδίων Καβάλας Μετωπικά (Προς Ηγουμενίτσα);Καβάλας-Άσπρη Άμμος;Εγνατία Οδός;egnatia;EG;eoae@egnatia.gr;1.00;1.40;3.50;4.90
40.88656;24.23466;Σταθμός Διοδίων Ελευθερούπολης Πλευρικά (Από Αλεξ/πολη);Καβάλας-Εξοχή;Εγνατία Οδός;egnatia;EG;eoae@egnatia.gr;0.50;0.60;1.50;2.10
40.88405;24.23595;Σταθμός Διοδίων Ελευθερούπολης Πλευρικά (Προς Αλεξ/πολη);Καβάλας-Εξοχή;Εγνατία Οδός;egnatia;EG;eoae@egnatia.gr;0.50;0.60;1.50;2.10
40.85810;24.16227;Σταθμός Διοδίων Μουσθένης Μετωπικά (Προς Αλεξ/πολη);Καβάλας-Μουσθένη;Εγνατία Οδός;egnatia;EG;eoae@egnatia.gr;1.10;1.60;4.00;5.60
40.85828;24.16236;Σταθμός Διοδίων Μουσθένης Μετωπικά (Προς Ηγουμενίτσα);Καβάλας-Μουσθένη;Εγνατία Οδός;egnatia;EG;eoae@egnatia.gr;1.10;1.60;4.00;5.60
40.83828;24.11487;Σταθμός Διοδίων Μουσθένης Πλευρικά (Από Ηγουμενίτσα);Καβάλας-Μουσθένη;Εγνατία Οδός;egnatia;EG;eoae@egnatia.gr;0.60;0.80;2.00;2.80
40.84142;24.11660;Σταθμός Διοδίων Μουσθένης Πλευρικά (Προς Ηγουμενίτσα);Καβάλας-Μουσθένη;Εγνατία Οδός;egnatia;EG;eoae@egnatia.gr;0.60;0.80;2.00;2.80
40.78273;23.95742;Σταθμός Διοδίων Γαληψού Ορφανίου Πλευρικά (Από Ηγουμενίτσα);Καβάλας-Ορφάνιο;Εγνατία Οδός;egnatia;EG;eoae@egnatia.gr;0.20;0.30;0.80;1.10
40.78738;23.95591;Σταθμός Διοδίων Γαληψού Ορφανίου Πλευρικά (Προς Ηγουμενίτσα);Καβάλας-Ορφάνιο;Εγνατία Οδός;egnatia;EG;eoae@egnatia.gr;0.20;0.30;0.80;1.10
39.21048;22.06925;Σταθμός Διοδίων Ανάβρας Πλευρικά (Από Λαμία);Καρδίτσας-Ανάβρα;Α/Δ Λαμίας-Τρικάλων;kentrikiodos;KO;customercare@kentrikiodos.gr;1.40;2.00;5.00;7.00
39.21025;22.06905;Σταθμός Διοδίων Ανάβρας Πλευρικά (Προς Λαμία);Καρδίτσας-Ανάβρα;Α/Δ Λαμίας-Τρικάλων;kentrikiodos;KO;customercare@kentrikiodos.gr;1.40;2.00;5.00;7.00
39.25717;22.08299;Σταθμός Διοδίων Σοφάδων Μετωπικά (Προς Λαμία);Καρδίτσας-Μαυραχάδες;Α/Δ Λαμίας-Τρικάλων;kentrikiodos;KO;customercare@kentrikiodos.gr;2.35;3.40;8.50;11.95
39.25691;22.08320;Σταθμός Διοδίων Σοφάδων Μετωπικά (Προς Τρίκαλα);Καρδίτσας-Μαυραχάδες;Α/Δ Λαμίας-Τρικάλων;kentrikiodos;KO;customercare@kentrikiodos.gr;2.35;3.40;8.50;11.95
39.47480;21.90310;Σταθμός Διοδίων Προαστίου Πλευρικά (Από Λαμία);Καρδίτσας-Προάστιο;Α/Δ Λαμίας-Τρικάλων;kentrikiodos;KO;customercare@kentrikiodos.gr;0.80;1.15;2.85;4.05
39.47460;21.90324;Σταθμός Διοδίων Προαστίου Πλευρικά (Προς Λαμία);Καρδίτσας-Προάστιο;Α/Δ Λαμίας-Τρικάλων;kentrikiodos;KO;customercare@kentrikiodos.gr;0.80;1.15;2.85;4.05
40.57450;21.06155;Σταθμός Διοδίων Ιεροπηγής Μετωπικά (Προς Κρυσταλλοπηγή);Καστοριάς-Ιεροπηγή;Α/Δ Σιάτιστας-Κρυσταλλοπηγής;egnatia;EG;eoae@egnatia.gr;1.00;1.40;3.50;4.90
40.57463;21.06136;Σταθμός Διοδίων Ιεροπηγής Μετωπικά (Προς Σιάτιστα);Καστοριάς-Ιεροπηγή;Α/Δ Σιάτιστας-Κρυσταλλοπηγής;egnatia;EG;eoae@egnatia.gr;1.00;1.40;3.50;4.90
41.10873;22.55840;Σταθμός Διοδίων Ευζώνων Μετωπικά (Προς Μάλγαρα);Κιλκίς-Εύζωνοι;Α/Δ ΠΑΘΕ;egnatia;EG;eoae@egnatia.gr;1.30;1.80;4.50;6.30
41.10865;22.55872;Σταθμός Διοδίων Ευζώνων Μετωπικά (Προς Σύνορα);Κιλκίς-Εύζωνοι;Α/Δ ΠΑΘΕ;egnatia;EG;eoae@egnatia.gr;1.30;1.80;4.50;6.30
40.98913;22.60377;Σταθμός Διοδίων Πολυκάστρου Πλευρικά (Από Πολύκαστρο);Κιλκίς-Πολύκαστρο;Α/Δ ΠΑΘΕ;egnatia;EG;eoae@egnatia.gr;0.90;1.30;3.30;4.60
40.98902;22.60492;Σταθμός Διοδίων Πολυκάστρου Πλευρικά (Προς Πολύκαστρο);Κιλκίς-Πολύκαστρο;Α/Δ ΠΑΘΕ;egnatia;EG;eoae@egnatia.gr;0.90;1.30;3.30;4.60
40.29780;21.68065;Σταθμός Διοδίων Καλαμιάς Πλευρικά (Από Αλεξ/πολη);Κοζάνης-Καλαμιά;Εγνατία Οδός;egnatia;EG;eoae@egnatia.gr;0.30;0.40;1.00;1.40
40.30186;21.69036;Σταθμός Διοδίων Καλαμιάς Πλευρικά (Προς Αλεξ/πολη);Κοζάνης-Καλαμιά;Εγνατία Οδός;egnatia;EG;eoae@egnatia.gr;0.30;0.40;1.00;1.40
40.36719;22.06011;Σταθμός Διοδίων Πολύμυλου Μετωπικά (Προς Αλεξ/πολη);Κοζάνης-Πολύμυλος;Εγνατία Οδός;egnatia;EG;eoae@egnatia.gr;1.00;1.40;3.50;4.90
40.36724;22.06038;Σταθμός Διοδίων Πολύμυλου Μετωπικά (Προς Ηγουμενίτσα);Κοζάνης-Πολύμυλος;Εγνατία Οδός;egnatia;EG;eoae@egnatia.gr;1.00;1.40;3.50;4.90
40.23622;21.57988;Σταθμός Διοδίων Σιάτιστας Ανατολικά Πλευρικά (Από Ηγουμενίτσα);Κοζάνης-Σιάτιστα;Εγνατία Οδός;egnatia;EG;eoae@egnatia.gr;0.50;0.70;1.80;2.50
40.23697;21.57984;Σταθμός Διοδίων Σιάτιστας Ανατολικά Πλευρικά (Προς Ηγουμενίτσα);Κοζάνης-Σιάτιστα;Εγνατία Οδός;egnatia;EG;eoae@egnatia.gr;0.50;0.70;1.80;2.50
40.25640;21.63294;Σταθμός Διοδίων Σιάτιστας Μετωπικά (Προς Αλεξ/πολη);Κοζάνης-Σιάτιστα;Εγνατία Οδός;egnatia;EG;eoae@egnatia.gr;1.10;1.50;3.80;5.30
40.25663;21.63296;Σταθμός Διοδίων Σιάτιστας Μετωπικά (Προς Ηγουμενίτσα);Κοζάνης-Σιάτιστα;Εγνατία Οδός;egnatia;EG;eoae@egnatia.gr;1.10;1.50;3.80;5.30
37.92207;23.11896;Σταθμός Διοδίων Αγίων Θεοδώρων Πλευρικά (Από Αθήνα);Κορινθίας-Άγιοι Θεόδωροι;Α/Δ Αθηνών-Κορίνθου;olympiaodos;OO;customercare@olympiaoperation.gr;0.40;0.60;1.50;2.10
37.92194;23.11967;Σταθμός Διοδίων Αγίων Θεοδώρων Πλευρικά (Προς Αθήνα);Κορινθίας-Άγιοι Θεόδωροι;Α/Δ Αθηνών-Κορίνθου;olympiaodos;OO;customercare@olympiaoperation.gr;0.40;0.60;1.50;2.10
38.13183;22.40492;Σταθμός Διοδίων Δερβενίου Πλευρικά (Από Αθήνα);Κορινθίας-Δερβένι;Α/Δ Κορίνθου-Πατρών;olympiaodos;OO;customercare@olympiaoperation.gr;1.00;1.40;3.60;5.10
38.13193;22.40525;Σταθμός Διοδίων Δερβενίου Πλευρικά (Προς Αθήνα);Κορινθίας-Δερβένι;Α/Δ Κορίνθου-Πατρών;olympiaodos;OO;customercare@olympiaoperation.gr;1.00;1.40;3.60;5.10
37.93143;22.78815;Σταθμός Διοδίων Ζευγολατιού Πλευρικά (Από Αθήνα);Κορινθίας-Ζευγολατιό;Α/Δ Κορίνθου-Πατρών;olympiaodos;OO;customercare@olympiaoperation.gr;0.50;0.80;2.00;2.90
37.93128;22.78786;Σταθμός Διοδίων Ζευγολατιού Πλευρικά (Προς Αθήνα);Κορινθίας-Ζευγολατιό;Α/Δ Κορίνθου-Πατρών;olympiaodos;OO;customercare@olympiaoperation.gr;0.50;0.80;2.00;2.90
37.92481;23.03208;Σταθμός Διοδίων Ισθμίων Μετωπικά (Προς Αθήνα);Κορινθίας-Ίσθμια;Α/Δ Αθηνών-Κορίνθου;olympiaodos;OO;customercare@olympiaoperation.gr;1.30;1.90;4.90;6.90
37.92535;23.03274;Σταθμός Διοδίων Ισθμίων Μετωπικά (Προς Πάτρα);Κορινθίας-Ίσθμια;Α/Δ Αθηνών-Κορίνθου;olympiaodos;OO;customercare@olympiaoperation.gr;1.30;1.90;4.90;6.90
37.99692;22.73517;Σταθμός Διοδίων Κιάτου Μετωπικά (Προς Αθήνα);Κορινθίας-Κιάτο;Α/Δ Κορίνθου-Πατρών;olympiaodos;OO;customercare@olympiaoperation.gr;1.70;2.50;6.20;8.80
37.99651;22.73565;Σταθμός Διοδίων Κιάτου Μετωπικά (Προς Πάτρα);Κορινθίας-Κιάτο;Α/Δ Κορίνθου-Πατρών;olympiaodos;OO;customercare@olympiaoperation.gr;1.70;2.50;6.20;8.80
38.00783;22.73326;Σταθμός Διοδίων Κιάτου Πλευρικά (Από Πάτρα);Κορινθίας-Κιάτο;Α/Δ Κορίνθου-Πατρών;olympiaodos;OO;customercare@olympiaoperation.gr;0.60;0.90;2.40;3.30
38.00783;22.73354;Σταθμός Διοδίων Κιάτου Πλευρικά (Προς Πάτρα);Κορινθίας-Κιάτο;Α/Δ Κορίνθου-Πατρών;olympiaodos;OO;customercare@olympiaoperation.gr;0.60;0.90;2.40;3.30
37.83599;22.80797;Σταθμός Διοδίων Σπαθοβουνίου Μετωπικά (Προς Καλαμάτα);Κορινθίας-Σπαθοβούνι;Α/Δ Μορέας;moreas;MO;info@moreas.com.gr;1.90;2.70;6.85;9.60
37.83565;22.80808;Σταθμός Διοδίων Σπαθοβουνίου Μετωπικά (Προς Κόρινθο);Κορινθίας-Σπαθοβούνι;Α/Δ Μορέας;moreas;MO;info@moreas.com.gr;1.90;2.70;6.85;9.60
39.74348;22.47595;Σταθμός Διοδίων Γυρτώνης Πλευρικά (Από Αθήνα);Λάρισας-Γυρτώνη;Α/Δ Αθηνών-Θεσσαλονίκης;aegeanmotorway;AM;customercare@aegeanmotorway.gr;0.40;0.60;1.90;2.70
39.74499;22.47529;Σταθμός Διοδίων Γυρτώνης Πλευρικά (Προς Αθήνα);Λάρισας-Γυρτώνη;Α/Δ Αθηνών-Θεσσαλονίκης;aegeanmotorway;AM;customercare@aegeanmotorway.gr;0.40;0.60;1.90;2.70
39.82932;22.51144;Σταθμός Διοδίων Ευαγγελισμού Πλευρικά (Από Θεσσαλονίκη);Λάρισας-Ευαγγελισμός;Α/Δ Αθηνών-Θεσσαλονίκης;aegeanmotorway;AM;customercare@aegeanmotorway.gr;0.70;1.10;3.20;4.50
39.82932;22.51359;Σταθμός Διοδίων Ευαγγελισμού Πλευρικά (Προς Θεσσαλονίκη);Λάρισας-Ευαγγελισμός;Α/Δ Αθηνών-Θεσσαλονίκης;aegeanmotorway;AM;customercare@aegeanmotorway.gr;0.70;1.10;3.20;4.50
39.49450;22.62619;Σταθμός Διοδίων Κιλελέρ Πλευρικά (Από Αθήνα);Λάρισας-Κιλελέρ;Α/Δ Αθηνών-Θεσσαλονίκης;aegeanmotorway;AM;customercare@aegeanmotorway.gr;1.50;2.10;6.40;9.00
39.49332;22.61891;Σταθμός Διοδίων Κιλελέρ Πλευρικά (Προς Αθήνα);Λάρισας-Κιλελέρ;Α/Δ Αθηνών-Θεσσαλονίκης;aegeanmotorway;AM;customercare@aegeanmotorway.gr;1.50;2.10;6.40;9.00
39.80461;22.50252;Σταθμός Διοδίων Μακρυχωρίου Μετωπικά (Προς Αθήνα);Λάρισας-Μακρυχώρι;Α/Δ Αθηνών-Θεσσαλονίκης;aegeanmotorway;AM;customercare@aegeanmotorway.gr;1.60;2.20;6.80;9.60
39.80427;22.50270;Σταθμός Διοδίων Μακρυχωρίου Μετωπικά (Προς Θεσσαλονίκη);Λάρισας-Μακρυχώρι;Α/Δ Αθηνών-Θεσσαλονίκης;aegeanmotorway;AM;customercare@aegeanmotorway.gr;1.60;2.20;6.80;9.60
39.79680;22.49904;Σταθμός Διοδίων Μακρυχωρίου Πλευρικά (Από Αθήνα);Λάρισας-Μακρυχώρι;Α/Δ Αθηνών-Θεσσαλονίκης;aegeanmotorway;AM;customercare@aegeanmotorway.gr;0.70;1.00;3.00;4.20
39.44227;22.68931;Σταθμός Διοδίων Μεγάλου Μοναστηρίου Πλευρικά (Από Αθήνα);Λάρισας-Μεγάλο Μοναστήρι;Α/Δ Αθηνών-Θεσσαλονίκης;aegeanmotorway;AM;customercare@aegeanmotorway.gr;1.20;1.70;5.00;7.00
39.44117;22.68652;Σταθμός Διοδίων Μεγάλου Μοναστηρίου Πλευρικά (Προς Αθήνα);Λάρισας-Μεγάλο Μοναστήρι;Α/Δ Αθηνών-Θεσσαλονίκης;aegeanmotorway;AM;customercare@aegeanmotorway.gr;1.20;1.70;5.00;7.00
39.52294;22.55670;Σταθμός Διοδίων Μοσχοχωρίου Μετωπικά (Προς Αθήνα);Λάρισας-Μοσχοχώρι;Α/Δ Αθηνών-Θεσσαλονίκης;aegeanmotorway;AM;customercare@aegeanmotorway.gr;2.50;3.60;10.80;15.10
39.52292;22.55705;Σταθμός Διοδίων Μοσχοχωρίου Μετωπικά (Προς Θεσσαλονίκη);Λάρισας-Μοσχοχώρι;Α/Δ Αθηνών-Θεσσαλονίκης;aegeanmotorway;AM;customercare@aegeanmotorway.gr;2.50;3.60;10.80;15.10
39.90926;22.62438;Σταθμός Διοδίων Πυργετού Πλευρικά (Προς Αθήνα);Λάρισας-Πυργετός;Α/Δ Αθηνών-Θεσσαλονίκης;aegeanmotorway;AM;customercare@aegeanmotorway.gr;1.00;1.50;4.50;6.30
39.90894;22.62438;Σταθμός Διοδίων Πυργετού Πλευρικά (Προς Θεσσαλονίκη);Λάρισας-Πυργετός;Α/Δ Αθηνών-Θεσσαλονίκης;aegeanmotorway;AM;customercare@aegeanmotorway.gr;1.00;1.50;4.50;6.30
39.38855;22.76817;Σταθμός Διοδίων Βελεστίνου Πλευρικά (Από Αθήνα);Μαγνησίας-Βελεστίνο;Α/Δ Αθηνών-Θεσσαλονίκης;aegeanmotorway;AM;customercare@aegeanmotorway.gr;0.80;1.10;3.30;4.60
39.38900;22.76446;Σταθμός Διοδίων Βελεστίνου Πλευρικά (Προς Αθήνα);Μαγνησίας-Βελεστίνο;Α/Δ Αθηνών-Θεσσαλονίκης;aegeanmotorway;AM;customercare@aegeanmotorway.gr;0.80;1.10;3.30;4.60
39.39075;22.76492;Σταθμός Διοδίων Βελεστίνου Πλευρικά (Προς Αθήνα);Μαγνησίας-Βελεστίνο;Α/Δ Αθηνών-Θεσσαλονίκης;aegeanmotorway;AM;customercare@aegeanmotorway.gr;0.80;1.10;3.30;4.60
37.15246;22.02610;Σταθμός Διοδίων Αρφαρών Πλευρικά (Από Κόρινθο);Μεσσηνίας-Αρφαρά;Α/Δ Μορέας;moreas;MO;info@moreas.com.gr;0.50;0.80;2.05;2.85
37.15349;22.02565;Σταθμός Διοδίων Αρφαρών Πλευρικά (Προς Κόρινθο);Μεσσηνίας-Αρφαρά;Α/Δ Μορέας;moreas;MO;info@moreas.com.gr;0.50;0.80;2.05;2.85
37.07192;22.04808;Σταθμός Διοδίων Θουρίας Πλευρικά (Από Καλαμάτα);Μεσσηνίας-Θουρία;Α/Δ Μορέας;moreas;MO;info@moreas.com.gr;0.30;0.50;1.30;1.85
37.07162;22.04731;Σταθμός Διοδίων Θουρίας Πλευρικά (Προς Καλαμάτα);Μεσσηνίας-Θουρία;Α/Δ Μορέας;moreas;MO;info@moreas.com.gr;0.30;0.50;1.30;1.85
37.13694;22.03779;Σταθμός Διοδίων Καλαμάτας Μετωπικά (Προς Καλαμάτα);Μεσσηνίας-Καλαμάτα;Α/Δ Μορέας;moreas;MO;info@moreas.com.gr;1.40;2.05;5.15;7.25
37.13675;22.03810;Σταθμός Διοδίων Καλαμάτας Μετωπικά (Προς Κόρινθο);Μεσσηνίας-Καλαμάτα;Α/Δ Μορέας;moreas;MO;info@moreas.com.gr;1.40;2.05;5.15;7.25
37.33067;22.07845;Σταθμός Διοδίων Παραδείσιων Πλευρικά (Από Καλαμάτα);Μεσσηνίας-Παραδείσια;Α/Δ Μορέας;moreas;MO;info@moreas.com.gr;0.50;0.80;2.05;2.90
37.33179;22.07778;Σταθμός Διοδίων Παραδείσιων Πλευρικά (Προς Καλαμάτα);Μεσσηνίας-Παραδείσια;Α/Δ Μορέας;moreas;MO;info@moreas.com.gr;0.50;0.80;2.05;2.90
41.09622;24.94660;Σταθμός Διοδίων Βαφέικων Πλευρικά (Από Ηγουμενίτσα Προς Ξάνθη);Ξάνθης-Βαφέικα;Εγνατία Οδός;egnatia;EG;eoae@egnatia.gr;0.20;0.30;0.80;1.10
41.09518;24.94467;Σταθμός Διοδίων Βαφέικων Πλευρικά (Από Ηγουμενίτσα Προς Πόρτο Λάγος);Ξάνθης-Βαφέικα;Εγνατία Οδός;egnatia;EG;eoae@egnatia.gr;0.20;0.30;0.80;1.10
41.09463;24.93714;Σταθμός Διοδίων Βαφέικων Πλευρικά (Από Ξάνθη Προς Ηγουμενίτσα);Ξάνθης-Βαφέικα;Εγνατία Οδός;egnatia;EG;eoae@egnatia.gr;0.20;0.30;0.80;1.10
41.09820;24.94494;Σταθμός Διοδίων Βαφέικων Πλευρικά (Από Πόρτο Λάγος Προς Ηγουμενίτσα);Ξάνθης-Βαφέικα;Εγνατία Οδός;egnatia;EG;eoae@egnatia.gr;0.20;0.30;0.80;1.10
40.03581;22.56973;Σταθμός Διοδίων Λεπτοκαρυάς Μετωπικά (Προς Αθήνα);Πιερίας-Λεπτοκαρυά;Α/Δ Αθηνών-Θεσσαλονίκης;aegeanmotorway;AM;customercare@aegeanmotorway.gr;2.00;2.80;8.60;12.00
40.03565;22.56999;Σταθμός Διοδίων Λεπτοκαρυάς Μετωπικά (Προς Θεσσαλονίκη);Πιερίας-Λεπτοκαρυά;Α/Δ Αθηνών-Θεσσαλονίκης;aegeanmotorway;AM;customercare@aegeanmotorway.gr;2.00;2.80;8.60;12.00
40.04498;22.56406;Σταθμός Διοδίων Λεπτοκαρυάς Πλευρικά (Από Θεσσαλονίκη);Πιερίας-Λεπτοκαρυά;Α/Δ Αθηνών-Θεσσαλονίκης;aegeanmotorway;AM;customercare@aegeanmotorway.gr;1.10;1.60;4.90;6.80
40.04503;22.56537;Σταθμός Διοδίων Λεπτοκαρυάς Πλευρικά (Προς Θεσσαλονίκη);Πιερίας-Λεπτοκαρυά;Α/Δ Αθηνών-Θεσσαλονίκης;aegeanmotorway;AM;customercare@aegeanmotorway.gr;1.10;1.60;4.90;6.80
39.98173;22.62521;Σταθμός Διοδίων Πλαταμώνα Πλευρικά (Από Αθήνα);Πιερίας-Πλαταμώνας;Α/Δ Αθηνών-Θεσσαλονίκης;aegeanmotorway;AM;customercare@aegeanmotorway.gr;0.40;0.60;1.80;2.50
39.98173;22.62488;Σταθμός Διοδίων Πλαταμώνα Πλευρικά (Προς Αθήνα);Πιερίας-Πλαταμώνας;Α/Δ Αθηνών-Θεσσαλονίκης;aegeanmotorway;AM;customercare@aegeanmotorway.gr;0.40;0.60;1.80;2.50
39.33170;20.91559;Σταθμός Διοδίων Γοργόμυλου Πλευρικά (Από Ρίο);Πρέβεζας-Γοργόμυλος;Α/Δ Αντιρρίου-Ιωαννίνων;neaodos;NO;info@neaodos.gr;0.75;1.10;2.75;3.90
39.33199;20.91415;Σταθμός Διοδίων Γοργόμυλου Πλευρικά (Προς Ρίο);Πρέβεζας-Γοργόμυλος;Α/Δ Αντιρρίου-Ιωαννίνων;neaodos;NO;info@neaodos.gr;0.75;1.10;2.75;3.90
41.12035;25.08013;Σταθμός Διοδίων Ίασμου Μετωπικά (Προς Αλεξ/πολη);Ροδόπης-Ίασμος;Εγνατία Οδός;egnatia;EG;eoae@egnatia.gr;1.00;1.40;3.50;4.90
41.12048;25.08019;Σταθμός Διοδίων Ίασμου Μετωπικά (Προς Ηγουμενίτσα);Ροδόπης-Ίασμος;Εγνατία Οδός;egnatia;EG;eoae@egnatia.gr;1.00;1.40;3.50;4.90
41.11714;25.18443;Σταθμός Διοδίων Ίασμου Πλευρικά (Από Αλεξ/πολη);Ροδόπης-Ίασμος;Εγνατία Οδός;egnatia;EG;eoae@egnatia.gr;0.40;0.50;1.30;1.80
41.11562;25.18446;Σταθμός Διοδίων Ίασμου Πλευρικά (Προς Αλεξ/πολη);Ροδόπης-Ίασμος;Εγνατία Οδός;egnatia;EG;eoae@egnatia.gr;0.40;0.50;1.30;1.80
41.05960;25.47539;Σταθμός Διοδίων ΒΙ.ΠΕ. Κομοτηνής Πλευρικά (Από Ηγουμενίτσα);Ροδόπης-Φύλακας;Εγνατία Οδός;egnatia;EG;eoae@egnatia.gr;0.20;0.30;0.80;1.10
41.06149;25.47661;Σταθμός Διοδίων ΒΙ.ΠΕ. Κομοτηνής Πλευρικά (Προς Ηγουμενίτσα);Ροδόπης-Φύλακας;Εγνατία Οδός;egnatia;EG;eoae@egnatia.gr;0.20;0.30;0.80;1.10
41.36410;23.35685;Σταθμός Διοδίων Προμαχώνα Μετωπικά (Προς Προμαχώνα);Σερρών-Προμαχώνας;Α/Δ Σερρών-Προμαχώνα;egnatia;EG;eoae@egnatia.gr;1.40;2.00;5.00;7.00
41.36428;23.35673;Σταθμός Διοδίων Προμαχώνα Μετωπικά (Προς Σέρρες);Σερρών-Προμαχώνας;Α/Δ Σερρών-Προμαχώνα;egnatia;EG;eoae@egnatia.gr;1.40;2.00;5.00;7.00
41.04377;23.29506;Σταθμός Διοδίων Στρυμονικού Μετωπικά (Προς Θεσσαλονίκη);Σερρών-Στρυμονικό;Α/Δ Θεσσαλονίκης-Σερρών;egnatia;EG;eoae@egnatia.gr;0.70;1.00;2.50;3.50
41.04362;23.29504;Σταθμός Διοδίων Στρυμονικού Μετωπικά (Προς Σέρρες);Σερρών-Στρυμονικό;Α/Δ Θεσσαλονίκης-Σερρών;egnatia;EG;eoae@egnatia.gr;0.70;1.00;2.50;3.50
39.70028;21.60858;Σταθμός Διοδίων Καλαμπάκας Πλευρικά (Από Καλαμπάκα);Τρικάλων-Καλαμπάκα;Κεντρική Οδός;kentrikiodos;KO;customercare@kentrikiodos.gr;0.60;0.90;2.25;3.15
39.69975;21.61080;Σταθμός Διοδίων Καλαμπάκας Πλευρικά (Προς Καλαμπάκα);Τρικάλων-Καλαμπάκα;Κεντρική Οδός;kentrikiodos;KO;customercare@kentrikiodos.gr;0.60;0.90;2.25;3.15
39.52040;21.83212;Σταθμός Διοδίων Τρικάλων Μετωπικά (Προς Λαμία);Τρικάλων-Λόγγος;Α/Δ Λαμίας-Τρικάλων;kentrikiodos;KO;customercare@kentrikiodos.gr;2.05;2.95;7.45;10.45
39.52022;21.83249;Σταθμός Διοδίων Τρικάλων Μετωπικά (Προς Τρίκαλα);Τρικάλων-Λόγγος;Α/Δ Λαμίας-Τρικάλων;kentrikiodos;KO;customercare@kentrikiodos.gr;2.05;2.95;7.45;10.45
39.78944;21.26681;Σταθμός Διοδίων Μαλακασίου Μετωπικά (Προς Αλεξ/πολη);Τρικάλων-Μαλακάσι;Εγνατία Οδός;egnatia;EG;eoae@egnatia.gr;1.00;1.40;3.50;4.90
39.78979;21.26626;Σταθμός Διοδίων Μαλακασίου Μετωπικά (Προς Ηγουμενίτσα);Τρικάλων-Μαλακάσι;Εγνατία Οδός;egnatia;EG;eoae@egnatia.gr;1.00;1.40;3.50;4.90
39.78578;21.29482;Σταθμός Διοδίων Παναγιάς Πλευρικά;Τρικάλων-Μαλακάσι;Εγνατία Οδός;egnatia;EG;eoae@egnatia.gr;0.70;1.00;2.50;3.50
39.56901;21.81829;Σταθμός Διοδίων Τρικάλων Πλευρικά (Από Τρίκαλα);Τρικάλων-Τρίκαλα;Κεντρική Οδός;kentrikiodos;KO;customercare@kentrikiodos.gr;0.55;0.80;2.05;2.90
39.56879;21.81811;Σταθμός Διοδίων Τρικάλων Πλευρικά (Προς Τρίκαλα);Τρικάλων-Τρίκαλα;Κεντρική Οδός;kentrikiodos;KO;customercare@kentrikiodos.gr;0.55;0.80;2.05;2.90
38.90377;22.57063;Σταθμός Διοδίων Αγίας Μαρίνας Πλευρικά (Από Θεσ/νίκη);Φθιώτιδος-Αγία Μαρίνα;Α/Δ Αθηνών-Θεσσαλονίκης;kentrikiodos;KO;customercare@kentrikiodos.gr;0.90;1.30;3.30;4.60
38.90305;22.56907;Σταθμός Διοδίων Αγίας Μαρίνας Πλευρικά (Προς Θεσ/νίκη);Φθιώτιδος-Αγία Μαρίνα;Α/Δ Αθηνών-Θεσσαλονίκης;kentrikiodos;KO;customercare@kentrikiodos.gr;0.90;1.30;3.30;4.60
38.80835;22.60256;Σταθμός Διοδίων Αγίας Τριάδας Μετωπικά (Προς Αθήνα);Φθιώτιδος-Αγία Τριάδα;Α/Δ Αθηνών-Θεσσαλονίκης;kentrikiodos;KO;customercare@kentrikiodos.gr;1.35;1.90;4.80;6.75
38.80869;22.60270;Σταθμός Διοδίων Αγίας Τριάδας Μετωπικά (Προς Θεσσαλονίκη);Φθιώτιδος-Αγία Τριάδα;Α/Δ Αθηνών-Θεσσαλονίκης;kentrikiodos;KO;customercare@kentrikiodos.gr;1.35;1.90;4.80;6.75
38.94941;22.87566;Σταθμός Διοδίων Γλύφας Πλευρικά (Από Θεσσαλονίκη);Φθιώτιδος-Γλύφα;Α/Δ Αθηνών-Θεσσαλονίκης;aegeanmotorway;AM;customercare@aegeanmotorway.gr;1.60;2.30;6.90;9.60
38.94799;22.87658;Σταθμός Διοδίων Γλύφας Πλευρικά (Προς Θεσσαλονίκη);Φθιώτιδος-Γλύφα;Α/Δ Αθηνών-Θεσσαλονίκης;aegeanmotorway;AM;customercare@aegeanmotorway.gr;1.60;2.30;6.90;9.60
38.79929;22.50926;Σταθμός Διοδίων Θερμοπυλών Πλευρικά (Από Θεσσαλονίκη);Φθιώτιδος-Θερμοπύλες;Α/Δ Αθηνών-Θεσσαλονίκης;kentrikiodos;KO;customercare@kentrikiodos.gr;0.45;0.65;1.65;2.35
38.79959;22.51118;Σταθμός Διοδίων Θερμοπυλών Πλευρικά (Προς Θεσσαλονίκη);Φθιώτιδος-Θερμοπύλες;Α/Δ Αθηνών-Θεσσαλονίκης;kentrikiodos;KO;customercare@kentrikiodos.gr;0.45;0.65;1.65;2.35
38.80267;22.64938;Σταθμός Διοδίων Μώλου Πλευρικά (Από Αθήνα);Φθιώτιδος-Μώλος;Α/Δ Αθηνών-Θεσσαλονίκης;kentrikiodos;KO;customercare@kentrikiodos.gr;0.25;0.35;0.90;1.30
38.80290;22.64952;Σταθμός Διοδίων Μώλου Πλευρικά (Προς Αθήνα);Φθιώτιδος-Μώλος;Α/Δ Αθηνών-Θεσσαλονίκης;kentrikiodos;KO;customercare@kentrikiodos.gr;0.25;0.35;0.90;1.30
38.92051;22.84637;Σταθμός Διοδίων Πελασγίας Μετωπικά (Προς Αθήνα);Φθιώτιδος-Πελασγία;Α/Δ Αθηνών-Θεσσαλονίκης;aegeanmotorway;AM;customercare@aegeanmotorway.gr;2.20;3.10;9.40;13.10
38.92015;22.84633;Σταθμός Διοδίων Πελασγίας Μετωπικά (Προς Θεσσαλονίκη);Φθιώτιδος-Πελασγία;Α/Δ Αθηνών-Θεσσαλονίκης;aegeanmotorway;AM;customercare@aegeanmotorway.gr;2.20;3.10;9.40;13.10
38.91517;22.34873;Σταθμός Διοδίων Λειανοκλαδίου Μετωπικά (Προς Λαμία);Φθιώτιδος-Σταυρός;Κεντρική Οδός;kentrikiodos;KO;customercare@kentrikiodos.gr;1.30;1.85;4.70;6.60
38.91495;22.34906;Σταθμός Διοδίων Λειανοκλαδίου Μετωπικά (Προς Τρίκαλα);Φθιώτιδος-Σταυρός;Κεντρική Οδός;kentrikiodos;KO;customercare@kentrikiodos.gr;1.30;1.85;4.70;6.60
38.90419;22.52794;Σταθμός Διοδίων Μαυρομαντήλας Μετωπικά (Προς Αθήνα);Φθιώτιδος-Στυλίδα;Α/Δ Αθηνών-Θεσσαλονίκης;kentrikiodos;KO;customercare@kentrikiodos.gr;1.45;2.05;5.15;7.25
38.90403;22.52754;Σταθμός Διοδίων Μαυρομαντήλας Μετωπικά (Προς Θεσσαλονίκη);Φθιώτιδος-Στυλίδα;Α/Δ Αθηνών-Θεσσαλονίκης;kentrikiodos;KO;customercare@kentrikiodos.gr;1.45;2.05;5.15;7.25
38.91363;22.65900;Σταθμός Διοδίων Στυλίδας Πλευρικά (Από Θεσσαλονίκη);Φθιώτιδος-Στυλίδα;Α/Δ Αθηνών-Θεσσαλονίκης;kentrikiodos;KO;customercare@kentrikiodos.gr;0.50;0.70;1.75;2.50
38.91357;22.65774;Σταθμός Διοδίων Στυλίδας Πλευρικά (Προς Θεσσαλονίκη);Φθιώτιδος-Στυλίδα;Α/Δ Αθηνών-Θεσσαλονίκης;kentrikiodos;KO;customercare@kentrikiodos.gr;0.50;0.70;1.75;2.50
38.61750;23.14335;Σταθμός Διοδίων Τραγάνας Μετωπικά (Προς Αθήνα);Φθιώτιδος-Τραγάνα;Α/Δ Αθηνών-Θεσσαλονίκης;neaodos;NO;info@neaodos.gr;2.90;4.15;10.45;14.60
38.61772;23.14384;Σταθμός Διοδίων Τραγάνας Μετωπικά (Προς Θεσσαλονίκη);Φθιώτιδος-Τραγάνα;Α/Δ Αθηνών-Θεσσαλονίκης;neaodos;NO;info@neaodos.gr;2.90;4.15;10.45;14.60
38.62199;23.12357;Σταθμός Διοδίων Τραγάνας Πλευρικά (Από Θεσσαλονίκη);Φθιώτιδος-Τραγάνα;Α/Δ Αθηνών-Θεσσαλονίκης;neaodos;NO;info@neaodos.gr;2.35;3.35;8.35;11.75
38.62253;23.12381;Σταθμός Διοδίων Τραγάνας Πλευρικά (Προς Θεσσαλονίκη);Φθιώτιδος-Τραγάνα;Α/Δ Αθηνών-Θεσσαλονίκης;neaodos;NO;info@neaodos.gr;2.35;3.35;8.35;11.75